[
  {
    "name": "رستوران دریایی هایدا",
    "category": "restaurant-seafood",
    "type": "رستوران دریایی",
    "tags": ["رستوران", "غذا", "ماهی", "میگو", "محلی"],
    "features": ["خانوادگی", "غذای محلی", "نزدیک دریا"],
    "price_level": "متوسط",
    "description": "رستورانی با تمرکز روی غذاهای دریایی و محلی؛ مناسب برای امتحان‌کردن طعم جنوب.",
    "address": "بلوار ساحلی، روبه‌روی اسکله شهید حقانی",
    "area": "بلوار صیادان",
    "phone": "076-0000001",
    "location": {
      "lat": 27.1835,
      "lng": 56.2670
    }
  },
  {
    "name": "کبابی داریس",
    "category": "restaurant-kababi",
    "type": "کبابی",
    "tags": ["رستوران", "کباب", "غذای ایرانی"],
    "features": ["خانوادگی", "سالن داخلی"],
    "price_level": "متوسط",
    "description": "کبابی با انواع کباب‌های ایرانی و فضای خانوادگی.",
    "address": "بهشت بندر",
    "area": "مرکز شهر",
    "phone": "076-0000002",
    "location": {
      "lat": 27.1870,
      "lng": 56.2705
    }
  },
  {
    "name": "کافه ساحلی مون",
    "category": "cafe",
    "type": "کافه",
    "tags": ["کافه", "قهوه", "نوشیدنی", "دسر"],
    "features": ["دنج", "مناسب قرار دوستانه", "منظره دریا"],
    "price_level": "متوسط",
    "description": "کافه‌ای رو به دریا با نوشیدنی‌های سرد و گرم.",
    "address": "بلوار ساحلی، نزدیک پارک ساحلی",
    "area": "بلوار ساحلی",
    "phone": "076-0000003",
    "location": {
      "lat": 27.1840,
      "lng": 56.2680
    }
  },
  {
    "name": "فست‌فود آتیش",
    "category": "fastfood",
    "type": "فست فود",
    "tags": ["فست فود", "پیتزا", "برگر", "ساندویچ"],
    "features": ["سریع", "مناسب جمع دوستانه"],
    "price_level": "ارزان",
    "description": "فست‌فودی با انواع پیتزا، برگر و ساندویچ.",
    "address": "بلوار دانشگاه",
    "area": "نزدیک دانشگاه",
    "phone": "076-0000004",
    "location": {
      "lat": 27.2000,
      "lng": 56.2800
    }
  }
]
